,id,nom,posteOuvert,typePoste,lon,lat,alt,postePublic
0,01014001,ARBENT,False,4,5.65,46.266667,535,True
1,01014002,ARBENT,True,1,5.669,46.278167,534,True
2,01027001,BALAN,False,4,5.083333,45.833333,197,True
3,01027003,BALAN_AERO,True,2,5.106667,45.833,196,True
4,01028001,BANEINS,False,4,4.9045,46.122,243,True
5,01029001,BEAUPONT,False,4,5.263333,46.411667,210,True
6,01033002,BELLEGARDE,False,2,5.814167,46.0865,350,True
7,01034001,BELLEY MAN,False,4,5.686667,45.755,277,True
8,01034004,BELLEY,True,1,5.688,45.769333,330,True
9,01037001,BENONCES,False,4,5.484167,45.862333,944,True
10,01053001,BOURG EN BRESSE,False,4,5.221667,46.206667,240,True
11,01053003,BOURG EN BRESSE,False,4,5.258333,46.215,250,True
12,01059001,BRENAZ,False,4,5.721667,45.948333,695,True
13,01064001,VERIZIEU,True,2,5.487167,45.777167,281,True
14,01071001,CESSY,True,1,6.080333,46.310333,507,True
15,01072001,CEYZERIAT_SAPC,True,2,5.287667,46.204333,260,True
16,01082001,CHANAY,False,4,5.788333,46.003333,480,True
17,01089001,AMBERIEU,True,0,5.329333,45.9765,250,True
18,01115001,CONFRANCON,False,4,5.06,46.253333,200,True
19,01128001,COURTES,False,4,5.103333,46.451667,220,True
20,01143001,DIVONNE,False,4,6.156667,46.376667,488,True
21,01143002,DIVONNE ZA,True,2,6.139667,46.3415,467,True
22,01174001,GIRON,False,4,5.7725,46.23,1015,True
23,01185001,HAUTEVILLE,False,4,5.6,45.966667,820,True
24,01185006,HAUTEVILLE_EDF_RIC-A2-DOUBLON,True,4,5.598167,45.979667,805,True
25,01192001,IZERNORE,False,4,5.541667,46.225,430,True
26,01200002,LA BALME SUR CERDON_SAPC,True,2,5.482,46.09,596,True
27,01204001,LALLEYRIAT,False,4,5.717167,46.152833,850,True
28,01204002,BURL,False,3,5.706667,46.166667,530,True
29,01210001,LELEX,False,4,5.941667,46.301667,930,True
30,01210002,LELEX,False,4,5.943333,46.303333,875,True
31,01224002,LOYETTES,False,4,5.238333,45.8065,198,True
32,01235001,MARLIEUX,True,2,5.044333,46.0385,280,True
33,01235002,MARLIEUX,False,3,5.073333,46.046667,273,True
34,01243001,MESSIMY,False,4,4.757667,46.047167,175,True
35,01247003,MIJOUX,True,2,6.019333,46.378833,1002,True
36,01247004,MIJOUX,False,4,6.021667,46.378333,1015,True
37,01247005,MIJ LELEX,False,4,5.951667,46.321667,890,True
38,01250001,MISERIEUX,False,4,4.801667,45.981667,270,True
39,01255002,MONTAGNIEU,False,4,5.469333,45.794333,336,True
40,01262003,MONTLUEL,False,4,5.016667,45.9,280,True
41,01262004,MONTLUEL,False,4,5.017167,45.907667,275,True
42,01269001,NANTUA,True,2,5.607333,46.148167,483,True
43,01273001,NEUVILLE,False,4,5.373833,46.083167,291,True
44,01276001,NIEVROZ,False,4,5.07,45.816667,182,True
45,01283001,OYONNAX,False,4,5.661667,46.271667,535,True
46,01301001,POLLIAT,False,2,5.11,46.236667,201,True
47,01350001,SAINT ETIENNE DU BOIS,False,4,5.279667,46.296,243,True
48,01367002,SAINT JULIEN SUR REYSSOUZE,True,2,5.109833,46.403167,189,True
49,01384001,SAINT RAMBERT EN BUGEY,False,4,5.426667,45.931667,285,True
50,01384003,ST RAMBERT CG01,True,3,5.461,45.950333,296,True
51,01414001,SUTRIEU,True,1,5.624667,45.916167,878,True
52,01419001,THOIRY,False,3,5.968333,46.241667,605,True
53,01441001,VIEU,False,4,5.540833,46.088833,615,True
54,01447001,VILLEREVERSURE,False,4,5.378333,46.183333,299,True
55,01452001,VIRIEU-LE-GRAND,False,4,5.65,45.833333,284,True
56,01453001,VIRIEU-LE-PETIT,False,4,5.718167,45.906833,603,True
0,02031001,AUBENTON,False,4,4.2005,49.834,177,True
1,02035001,AUDIGNY,False,4,3.65,49.866667,150,True
2,02037002,AULNOIS-SS-LAON,True,1,3.610333,49.595667,78,True
3,02058001,BEAURIEUX,True,2,3.732667,49.390333,56,True
4,02085001,BEZU-SAINT-GERMAIN SANEF,False,4,3.393333,49.08,195,True
5,02086001,BICHANCOURT,False,4,3.210833,49.579333,59,True
6,02094001,BLESMES,True,1,3.462667,49.009667,222,True
7,02110002,BRAINE,True,1,3.527,49.351333,61,True
8,02153001,CESSIERES,False,4,3.498333,49.553333,107,True
9,02168001,CHATEAU-THIERRY,False,4,3.401667,49.045,64,True
10,02173002,CHAUNY,True,1,3.197833,49.633833,83,True
11,02197001,CLAIRFONTAINE,False,2,3.966667,49.966667,225,True
12,02199001,CLASTRES,False,4,3.2285,49.742833,75,True
13,02217002,COUCY-LE-CHATEAU-AUFFRIQUE,False,4,3.321667,49.518333,52,True
14,02220001,COULONGES-COHAN,False,4,3.605833,49.214167,168,True
15,02239001,CREZANCY,False,4,3.5,49.05,125,True
16,02278001,EPARCY,False,4,4.0595,49.875,161,True
17,02298001,ETREUX,False,4,3.646833,49.987833,120,True
18,02301002,FAUCOUCOURT,False,4,3.462167,49.527333,100,True
19,02307001,LA FERTE-MILON,False,4,3.13,49.173333,65,True
20,02308001,FESMY-LE-SART,False,4,3.726667,50.06,190,True
21,02320001,ST QUENTIN,True,0,3.206,49.818333,98,True
22,02321001,FONTAINE-VV MAN,False,4,3.8795,49.836333,184,True
23,02321002,FONTAINE-LES-VV,True,1,3.877833,49.837333,186,True
24,02346001,GIZY,True,2,3.781,49.599833,75,True
25,02381001,HIRSON,True,2,4.077167,49.922,165,True
26,02408002,LAON,False,4,3.596667,49.57,82,True
27,02408003,LAON ECOLE NORMALE,False,4,3.612167,49.559167,175,True
28,02408022,LAON STATION AGRONOMIQUE,False,4,3.605,49.570833,91,True
29,02471001,MARTIGNY-COURPI,True,2,3.693167,49.485667,95,True
30,02505001,MONTFAUCON,False,4,3.441,48.973333,217,True
31,02558001,NOUVION-EN-T,False,4,3.7765,50.007833,182,True
32,02580001,OULCHY-LE-CHATE,False,4,3.417,49.208667,122,True
33,02585001,PARCY-ET-TIGNY,True,2,3.331,49.280167,148,True
34,02590001,PARGNY-LA-DHUYS LES SOURCES,False,4,3.553333,48.953333,142,True
35,02594001,PASSY EN VALOIS,False,2,3.199667,49.165167,141,True
36,02602001,PINON,False,4,3.446667,49.488333,58,True
37,02617001,POUILLY-SUR-SERRE,False,4,3.597333,49.683833,68,True
38,02626001,PROUVAIS,False,4,3.970667,49.463333,105,True
39,02643002,RESSONS LE LONG,False,4,3.147667,49.3835,133,True
40,02651001,ROGECOURT MONTROUGE,False,4,3.426667,49.651667,95,True
41,02691001,ST-QUENTIN MAN,False,4,3.303167,49.834167,78,True
42,02705001,NIZY-LE-COMTE,True,1,4.0365,49.566,90,True
43,02722002,SOISSONS,False,4,3.310667,49.390667,40,True
44,02734001,TAILLEFONTAINE,False,4,3.044,49.312667,140,True
45,02738001,TERGNIER,True,2,3.320667,49.663833,59,True
46,02758001,VAILLY-SUR-AISN,False,4,3.519333,49.412167,65,True
47,02789001,VERVINS FPA - ECOLE AGRICOLE,False,4,3.908333,49.835,180,True
48,02810001,VILLERS-COTTERE,False,4,3.083333,49.25,125,True
0,03005001,ARCHIGNAT,False,3,2.433667,46.359333,370,True
1,03006001,ARFEUILLES,False,4,3.728333,46.153333,425,True
2,03006003,ARFEUILLES,False,4,3.7355,46.163667,450,True
3,03013001,AVERMES RUE DES GATEAUX,False,4,3.306667,46.588333,215,True
4,03023001,BELLERIVE-SUR-ALLIER BOURG,False,4,3.406667,46.116667,260,True
5,03029001,BILLY,False,4,3.431667,46.233333,286,True
6,03036001,BOURBON-L ARCH,False,4,3.057167,46.586,235,True
7,03036002,BOURBON_SAPC,True,2,3.0495,46.58,270,True
8,03038001,BRANSAT,False,4,3.223333,46.328333,350,True
9,03043001,BROUT-VERNET,False,4,3.267667,46.187167,315,True
10,03046001,BUXIERES,False,4,3.004833,46.4535,375,True
11,03053001,CHANTELLE LA FONT VINEE,False,4,3.15,46.236667,330,True
12,03059001,CHAREIL-CINTRAT_SAPC,True,2,3.225667,46.275833,286,True
13,03060001,VICHY-CHARMEIL,True,0,3.398667,46.166667,249,True
14,03061001,CHARMES_SAPC,True,2,3.233667,46.0635,330,True
15,03066001,CHATEL-MONTAGNE,False,4,3.683333,46.116667,345,True
16,03066002,CHATEL-MTG,False,4,3.666667,46.115,366,True
17,03066003,CHATEL-MONTAGNE,False,4,3.683,46.1155,515,True
18,03073001,CHEMILLY,False,4,3.315833,46.488333,235,True
19,03074001,CHEVAGNES,True,2,3.549167,46.630667,228,True
20,03082003,COMMENTRY,False,3,2.746667,46.295,370,True
21,03083002,CONTIGNY,False,4,3.292333,46.3535,305,True
22,03084001,COSNE,False,4,2.828333,46.473333,235,True
23,03100001,DIOU,True,2,3.706667,46.541667,220,True
24,03106002,DURDAT-LAREQUILLE,True,2,2.695667,46.251667,500,True
25,03108001,ECHASSIERES_SAPC,True,2,2.957667,46.191167,650,True
26,03114001,FERTE-HAUTERIVE,True,2,3.330167,46.375333,226,True
27,03118001,GANNAT,False,4,3.198667,46.110333,347,True
28,03125001,LA GUILLERMIE,True,2,3.639833,45.984667,722,True
29,03127001,HERISSON,False,4,2.757333,46.501167,248,True
30,03127004,HERISSON PONTS-ET-CHAUSSEES,False,4,2.711667,46.508333,199,True
31,03130002,ISLE-ET-BARDAIS,True,2,2.730167,46.663333,262,True
32,03139002,LAPRUGNE,False,4,3.797833,46.004333,1093,True
33,03149002,LOUCHY-MONTFAND,False,4,3.241833,46.303667,280,True
34,03155001,LURCY-LEVIS,False,4,2.935167,46.730167,206,True
35,03155003,LURCY-LEVIS SA,True,1,2.947667,46.718333,225,True
36,03159001,MALICORNE,False,4,2.7775,46.300333,400,True
37,03162001,MARIGNY,True,2,3.195833,46.581667,249,True
38,03165001,MAYET-DE-MONTAG,False,4,3.684,46.076833,542,True
39,03165002,LE MAYET-DE-MONTAGNE-EDF,False,4,3.666667,46.07,480,True
40,03168001,MEAULNE,False,4,2.610167,46.610833,218,True
41,03180001,MONTBEUGNY,True,1,3.423167,46.536333,275,True
42,03183001,LE MONTET PEPINIERES,False,4,3.053333,46.408333,493,True
43,03185001,MONTLUCON,False,4,2.606667,46.32,207,True
44,03185006,MONTLUCON,False,3,2.596333,46.365,207,True
45,03185007,MONTLUCON,True,1,2.574667,46.355167,229,True
46,03186001,MONTMARAULT,False,3,2.9525,46.314833,466,True
47,03190002,MOULINS ECOLE NORMALE,False,4,3.333333,46.566667,222,True
48,03200001,NEUVY,False,3,3.2855,46.549667,250,True
49,03204001,PARAY-SOUS-BRIAILLES,True,2,3.337833,46.2835,250,True
50,03226001,SAINT DIDIER_SAPC,True,2,3.850167,46.365333,293,True
51,03236001,SAINT-GERMAIN-DES-FOSSES,False,4,3.435833,46.1905,286,True
52,03240001,ST-LEON,True,2,3.685833,46.4025,378,True
53,03248001,ST-NICOLAS,True,1,3.805167,46.0515,1022,True
54,03253001,ST-POURCAIN-BES,False,3,3.615833,46.491667,268,True
55,03285001,TORTEZAIS_SAPC,True,2,2.857,46.451333,256,True
56,03292001,TRONGET,False,4,3.103333,46.403333,450,True
57,03297001,VALLON-EN-SULL,False,4,2.615,46.546667,170,True
58,03310001,VICHY-VILLE,True,2,3.439,46.117667,255,True
59,03321001,YZEURE,True,2,3.352833,46.579167,242,True
0,04004001,ALLEMAGNE-EN-PROVENCE,False,4,6.006667,43.781667,450,True
1,04004003,ALLEMAGNE-EN-PROVENCE BOURG,False,4,6.006667,43.783333,600,True
2,04006004,ALLOS,False,3,6.631667,44.226667,1370,True
3,04006005,ALLOS_SAPC,True,2,6.625333,44.2425,1400,True
4,04006400,LA FOUX D ALLOS_NIVO,True,4,6.561667,44.289833,1900,True
5,04019001,BARCELONNETTE,True,1,6.670167,44.391167,1155,True
6,04019006,BARCELLONNETTE EN,False,4,6.65,44.388333,1173,True
7,04019404,PRA LOUP_NIVO,True,4,6.584667,44.36,2100,True
8,04022001,BARREME,True,2,6.372333,43.957167,743,True
9,04023001,BAYONS,True,2,6.178667,44.342667,886,True
10,04024004,BEAUJEU ST PIERRE,True,2,6.385167,44.209833,960,True
11,04027002,BEVONS,False,4,5.861833,44.167,520,True
12,04039001,CASTELLANE,True,2,6.508,43.849167,729,True
13,04039002,PALLUD,False,4,6.496667,43.866667,820,True
14,04040001,CASTELLARD,False,4,6.125,44.186667,1199,True
15,04040002,CASTELLARD(LE),False,4,6.125,44.186667,1070,True
16,04041001,LE CASTELLET,True,2,5.9795,43.938333,473,True
17,04045001,CERESTE,False,4,5.566,43.850667,350,True
18,04049001,ST AUBAN,True,0,5.989667,44.062167,458,True
19,04049005,CHATEAU-ARNOUX-SAINT-AUBAN-BG,False,4,6.006667,44.093333,460,True
20,04068001,DAUPHIN,True,1,5.767167,43.909833,427,True
21,04070005,DIGNE-LES-BAINS AGGLOMERATION,False,4,6.235,44.095,580,True
22,04070007,DIGNE,False,2,6.186667,44.076667,560,True
23,04070008,DIGNE,False,2,6.225,44.083333,585,True
24,04070009,DIGNE LES BAINS,True,1,6.186667,44.07,554,True
25,04088001,FORCALQUIER,True,4,5.784667,43.962833,535,True
26,04088003,FORCALQUIER,False,4,5.78,43.933333,470,True
27,04094001,GREOUX-ITCF,False,3,5.858333,43.751667,296,True
28,04094002,GREOUX,False,2,5.883333,43.756667,359,True
29,04096002,JAUSIERS-ST ANNE,True,2,6.725167,44.413667,1240,True
30,04096401,RESTEFOND-NIVOSE,True,3,6.8,44.34,2550,True
31,04106001,LURS,False,4,5.866333,43.9445,385,True
32,04112001,MANOSQUE,False,4,5.785,43.843333,380,True
33,04112006,MANOSQUE,False,2,5.817167,43.797,289,True
34,04112009,MANOSQUE,False,2,5.793333,43.8355,457,True
35,04115001,MEAILLES_SAPC,True,2,6.6295,44.031167,1090,True
36,04126001,MONTCLAR_SAPC,True,2,6.333333,44.391833,1197,True
37,04134002,LA MOTTE DU CAIRE,True,2,6.0305,44.326667,665,True
38,04136001,LA MURE-ARGENS,True,1,6.520167,43.977,920,True
39,04157001,PUIMOISSON,False,2,6.168833,43.871167,775,True
40,04158002,QUINSON,False,4,6.039833,43.7075,400,True
41,04160001,REILLANNE,False,4,5.663333,43.87,455,True
42,04172001,ROUMOULES,False,4,6.150833,43.7935,665,True
43,04173001,ST-ANDRE,False,4,6.511667,43.968333,890,True
44,04173002,ST ANDRE ALPES,False,2,6.511667,43.958333,882,True
45,04184001,ST JURS,True,2,6.2005,43.900833,867,True
46,04189001,ST-MARTIN,False,4,5.94,43.763333,392,True
47,04192001,ST MICHEL L OBS,False,2,5.713333,43.933333,650,True
48,04193002,ST PAUL,False,4,6.843333,44.593,1908,True
49,04193400,MALJASSET_NIVO,True,4,6.843333,44.593,1908,True
50,04205001,SEYNE,True,4,6.3645,44.3515,1210,True
51,04205004,SEYNE-COL MAURE,False,4,6.400167,44.320333,1347,True
52,04209001,SISTERON BEAULIEU,False,4,5.941667,44.195,480,True
53,04209004,SISTERON-CHAUMI,False,4,5.941667,44.215,485,True
54,04209005,SISTERON,True,2,5.916,44.2245,500,True
55,04217001,THOARD,False,4,6.138333,44.16,785,True
56,04217002,THOARD,False,4,6.138833,44.146833,732,True
57,04219001,THORAME HAUTE,True,4,6.557333,44.091667,1155,True
58,04222001,TURRIERS,True,2,6.1695,44.399,1020,True
59,04230001,VALENSOLE,True,1,6.000833,43.8395,600,True
0,05001001,ABRIES,True,4,6.928333,44.796667,1560,True
1,05001400,ABRIES_NIVO,True,4,6.947,44.792833,2018,True
2,05004001,ANCELLE,True,2,6.209833,44.6245,1354,True
3,05007001,ARVIEUX LA CHALP,True,4,6.736667,44.781167,1690,True
4,05007003,ARVIEUX,True,1,6.728,44.796,1825,True
5,05013001,BARCILLONNETTE,False,4,5.92,44.436667,845,True
6,05023001,BRIANCON,False,4,6.635,44.908333,1324,True
7,05023002,BRIANCON,False,4,6.638333,44.896667,1406,True
8,05023008,BRIANCON,False,4,6.638333,44.896667,1352,True
9,05026001,CEILLAC,True,4,6.776167,44.671167,1665,True
10,05026400,CEILLAC_NIVO,True,4,6.776167,44.671167,1665,True
11,05027001,CERVIERES,True,2,6.7235,44.869333,1614,True
12,05028001,CHABESTAN,False,4,5.781667,44.471667,755,True
13,05031001,CHAMPCELLA,False,4,6.57,44.728333,1100,True
14,05032002,CHAMPOLEON,True,4,6.258833,44.720167,1275,True
15,05038001,CHATEAU-VILLE-VIEILLE,True,2,6.809,44.759333,1355,True
16,05044400,PARPAILLON-NIVOSE,True,3,6.636333,44.495333,2545,True
17,05046001,EMBRUN,True,0,6.508667,44.571167,873,True
18,05055001,LA FAURIE,True,2,5.750167,44.566667,825,True
19,05061008,GAP,False,4,6.091667,44.568333,750,True
20,05061009,GAP,True,1,6.079833,44.577667,885,True
21,05061400,GAP BAYARD_NIVO,False,4,6.084333,44.6215,1240,True
22,05063001,LA GRAVE,True,4,6.285833,45.054167,1790,True
23,05063402,LA MEIJE-NIVOSE,True,3,6.265167,45.012333,3093,True
24,05063410,LA GRAVE 3200 M,True,4,6.253,45.006,3196,True
25,05064001,CHAPELLE-EN-VALGAUDEMAR,True,4,6.195333,44.81,1270,True
26,05064403,LES PORTES EN VALGAUDEMAR_NIVO,True,4,6.195333,44.81,1270,True
27,05065001,GUILLESTRE QUARTIER PREPAREING,False,4,6.65,44.66,980,True
28,05070001,LARAGNE-MONTEGLIN,True,4,5.827,44.316667,575,True
29,05070003,LARAGNE MONTEGLIN,True,1,5.7945,44.319167,565,True
30,05077402,COL AGNEL-NIVOSE,True,3,6.972167,44.686,2630,True
31,05077404,MOLINES EN QUEYRAS_NIVO,True,4,6.8605,44.715333,2049,True
32,05079001,LE MONETIER LES BAINS,True,4,6.514167,44.9715,1459,True
33,05079002,LE MONETIER,False,4,6.508333,44.975,1947,True
34,05079400,SERRE CHE-LE MONETIER_NIVO,True,4,6.501,44.949833,2185,True
35,05079402,GALIBIER-NIVOSE,True,3,6.377167,45.056833,2559,True
36,05085001,MONTGENEVRE,False,4,6.721333,44.9305,1848,True
37,05085403,MONTGENEVRE_NIVO,True,4,6.7195,44.938167,2134,True
38,05090001,MOTTE-DALMAS,False,4,6.066167,44.730833,1100,True
39,05090002,MOTTE-MOLINES,True,2,6.122833,44.748167,1250,True
40,05093001,NEVACHE-EDF-03,True,4,6.622333,45.0185,1603,True
41,05093403,NEVACHE-BUFFERE,False,5,6.570833,45.012833,2060,True
42,05096404,ORCIERES-NIVOSE,True,3,6.333667,44.719,2280,True
43,05098001,LES ORRES,True,2,6.559333,44.508833,1457,True
44,05098402,LES ORRES_NIVO,True,4,6.562833,44.481667,1895,True
45,05101001,PELVOUX,True,2,6.486667,44.866833,1270,True
46,05101400,PELVOUX ST ANTOINE_NIVO,False,4,6.487167,44.870833,1270,True
47,05110001,PUY-ST-VINCENT,True,2,6.492667,44.828833,1388,True
48,05110400,PUY ST VINCENT_NIVO,True,4,6.485833,44.818,1680,True
49,05114402,REALLON _NIVO,True,4,6.352333,44.579333,1716,True
50,05118002,RIBIERS-GRANGE,False,4,5.881167,44.198167,530,True
51,05118003,RIBIERS,False,2,5.855,44.2355,520,True
52,05119402,RISOUL_NIVO,True,4,6.644167,44.616667,2050,True
53,05120002,RISTOLAS,True,1,6.9845,44.765667,1670,True
54,05126001,ROSANS,True,2,5.462167,44.3875,625,True
55,05132001,ST-BONNET CHAMPSAUR,True,4,6.072833,44.684167,1005,True
56,05132002,ST BONNET,False,2,6.08,44.685,1015,True
57,05133400,SERRE CHE-CHANTEMERLE_NIVO,True,4,6.571333,44.9245,1905,True
58,05136002,ST CREPIN,True,1,6.6,44.7045,906,True
59,05139001,CYPIERES,False,4,5.933333,44.683333,1350,True
60,05139002,ST ETIENNE-EN-DEVOLUY,True,4,5.9405,44.6945,1300,True
61,05139006,AGNIERES-EN-DEVOLUY,True,2,5.880833,44.696167,1244,True
62,05139400,St Etienne en Devoluy,False,4,5.937667,44.69,1281,True
63,05139405,Super_Devoluy,False,4,5.906667,44.6655,1915,True
64,05142001,ST FIRMIN,True,2,6.035,44.7825,935,True
65,05145002,ST JEAN-ST-NICOLAS,True,1,6.209833,44.670833,1210,True
66,05157001,ST VERAN,True,4,6.869167,44.699833,2035,True
67,05157400,ST VERAN RM,False,4,6.867833,44.705167,2140,True
68,05158001,LE SAIX,False,2,5.8155,44.475833,801,True
69,05170001,TALLARD,True,1,6.033333,44.452167,593,True
70,05179001,VEYNES,True,2,5.840667,44.536333,823,True
71,05181002,VILLAR D'ARENE,True,1,6.361667,45.030833,1665,True
72,05181400,REFUGE ADELE PLANCHARD,True,5,6.340167,44.98,3175,True
73,05182001,VILLAR LOUBIERE,True,2,6.146,44.826833,1072,True
74,05183001,VILLAR ST PANCRACE,True,0,6.640333,44.880333,1310,True
75,05184002,VITROLLES,False,2,5.951667,44.408667,595,True
0,06004001,ANTIBES VILLA THURET,False,4,7.118333,43.58,39,True
1,06004002,ANTIBES-GAROUPE,True,2,7.133,43.564667,75,True
2,06004004,ANTIBES-GOLF,True,2,7.091167,43.579667,13,True
3,06004009,ANTIBES_SAPC,True,2,7.111167,43.599167,32,True
4,06004012,ANTIBES PORT,False,2,7.127167,43.585333,3,True
5,06004014,ANTIBES,False,0,7.128333,43.590167,1,True
6,06005001,ASCROS,True,1,7.013667,43.922,1173,True
7,06011002,BEAULIEU-SUR-MER VILLA SALLES,False,4,7.326667,43.705,9,True
8,06015001,BERRE-DES-ALPES,False,2,7.321667,43.838333,715,True
9,06016001,BEUIL-OBS,True,2,6.988,44.089833,1464,True
10,06016004,BEUIL,False,2,6.989333,44.089,1368,True
11,06022001,BOUYON-OBS,False,4,7.107167,43.815333,730,True
12,06022002,BOUYON,False,2,7.118167,43.823,723,True
13,06023001,BREIL ROYA-OBS,False,4,7.5,43.933333,320,True
14,06023004,BREIL SUR ROYA,True,2,7.513667,43.940167,305,True
15,06029001,CANNES,True,0,6.9505,43.5565,2,True
16,06029006,CANNES AGGLOMERATION,False,4,7.016667,43.558333,5,True
17,06029007,CANNES PORT,False,2,7.033333,43.55,3,True
18,06029008,CANNES BOURG,False,4,7.016667,43.558333,27,True
19,06033002,CARROS_SAPC,True,2,7.209167,43.786667,78,True
20,06037002,CAUSSOLS,True,2,6.923167,43.752333,1268,True
21,06038001,CHATEAUNEUF GRASSE,True,2,6.996167,43.678333,379,True
22,06044002,COLLE SUR LOUP,False,2,7.1,43.691667,165,True
23,06046001,COLOMARS,False,4,7.216667,43.766667,334,True
24,06048003,CONTES,False,2,7.316667,43.8,200,True
25,06050002,COURSEGOULES_SAPC,True,2,7.0485,43.792,985,True
26,06051001,LA CROIX SUR ROUDOULE_SAPC,False,2,6.873333,43.987667,860,True
27,06056400,ESTENC_NIVO,True,4,6.753,44.239167,1850,True
28,06057001,L ESCARENE,False,4,7.355,43.838,380,True
29,06059003,EZE,True,2,7.365833,43.738833,704,True
30,06069006,GRASSE VILLA MONT-VENTOUX,False,4,6.921667,43.658333,350,True
31,06069008,GRASSE,False,2,6.9395,43.653667,183,True
32,06069009,GRASSE JARDIN ESSAIS,False,4,6.923333,43.658333,160,True
33,06071001,GUILLAUMES-OBS,True,2,6.852333,44.090667,788,True
34,06071003,GUILLAUMES,False,2,6.85,44.1,780,True
35,06073001,ISOLA,False,4,7.033333,44.2,870,True
36,06073004,ISOLA,False,4,7.166667,44.2,2035,True
37,06073005,ISOLA 2000,True,2,7.149,44.1895,1912,True
38,06073405,ISOLA_NIVO,True,4,7.149,44.1895,1912,True
39,06074005,LANTOSQUE_SAPC,True,2,7.307,43.972,550,True
40,06075001,LEVENS-OBS,False,4,7.216667,43.866667,565,True
41,06075006,LEVENS_RESERVOIRS,False,2,7.236667,43.861667,668,True
42,06075007,LEVENS,True,2,7.21,43.846333,691,True
43,06077001,LUCERAM-OBS,False,4,7.366667,43.933333,1420,True
44,06077006,PEIRA CAVA,True,1,7.363333,43.929167,1443,True
45,06079002,MANDELIEU LA NAPOULE_SAPC,True,2,6.898667,43.523667,104,True
46,06081001,LE MAS,True,1,6.809333,43.813667,1525,True
47,06083001,MENTON-OBS,False,4,7.528833,43.784833,12,True
48,06083005,MENTON,True,2,7.488667,43.785833,216,True
49,06083006,MENTON-PORT,False,2,7.519333,43.784,19,True
50,06084002,MOUANS SARTOUX,False,2,6.951167,43.611833,165,True
51,06086001,MOULINET,True,2,7.414667,43.942,817,True
52,06088001,NICE,True,0,7.209,43.648833,2,True
53,06088003,NICE-COL,False,4,7.301333,43.710333,199,True
54,06088005,NICE-FERIC,False,4,7.2345,43.7175,197,True
55,06088007,NICE-RIMIEZ,True,2,7.279167,43.738667,238,True
56,06088009,NICE-ST ROMAN,False,2,7.216667,43.751667,323,True
57,06088010,NICE,False,4,7.268833,43.714333,18,True
58,06088011,NICE MONT-GROS,False,4,7.2985,43.726333,347,True
59,06088012,NICE-TEYSSEIRE,False,4,7.261667,43.705,9,True
60,06088013,NICE,False,4,7.270667,43.6965,16,True
61,06088020,NICE MASSENA,False,4,7.2695,43.695333,2,True
62,06090001,PEGOMAS-TANNERON,False,2,6.897,43.562667,483,True
63,06090002,PEGOMAS,True,2,6.936667,43.602667,109,True
64,06091001,PEILLE-OBS,False,4,7.4,43.833333,630,True
65,06091003,PEILLE,True,1,7.428333,43.775167,1106,True
66,06091004,PEILLE,False,3,7.4,43.8,672,True
67,06094001,PEONE-VALBERG,False,4,6.933333,44.1,1659,True
68,06094002,PEONE,True,1,6.930833,44.099667,1784,True
69,06094400,VALBERG_NIVO,True,4,6.941333,44.087,1630,True
70,06099001,PUGET-THENI-OBS,False,4,6.9,43.95,420,True
71,06099004,PUGET THENIERS_SAPC,True,2,6.892333,43.956833,449,True
72,06102001,RIMPLAS_SAPC,True,2,7.1335,44.067167,1130,True
73,06103002,BERTHEMONT-LES-BAINS_SAPC,True,2,7.300833,44.044333,938,True
74,06106002,ROQUESTERON,False,2,7.006167,43.876333,405,True
75,06116002,ST AUBAN,False,2,6.727,43.847,1048,True
76,06118001,ST CEZAIRE,False,2,6.797667,43.645167,474,True
77,06118002,ST CEZAIRE SUR SIAGNE,True,1,6.809,43.678667,694,True
78,06119001,ST-DALMAS-LE-SE,False,4,6.85,44.283333,1500,True
79,06120001,TINEE-AURON,False,4,6.937333,44.222667,1605,True
80,06120004,ST ETIENNE DE TINEE_SAPC,True,2,6.921167,44.257667,1150,True
81,06120400,AURON_NIVO,True,4,6.9135,44.215333,1910,True
82,06120401,AURON -S-,True,4,6.928667,44.207833,2099,True
83,06121001,CAP FERRAT,False,2,7.328333,43.683333,138,True
84,06121002,SAINT-JEAN-CAP-FERRAT,False,4,7.33,43.69,35,True
85,06125001,ST MARTIN D'ENTRAUNES_SAPC,True,2,6.747,44.154667,1642,True
86,06127001,ST-MARTIN-DE-VESUBIE-OBS,False,2,7.254167,44.074167,994,True
87,06127003,ST MARTIN VESUBIE,False,2,7.258167,44.073667,1044,True
88,06127006,SAINT MARTIN VESUBIE_SAPC,False,2,7.255,44.065667,899,True
89,06130001,ST-VALLIER-OBS,False,4,6.833333,43.716667,715,True
90,06130002,ST VALLIER,False,2,6.843,43.691333,708,True
91,06136001,SOSPEL-OBS,False,4,7.433333,43.9,349,True
92,06136003,SOSPEL,False,2,7.45,43.883333,360,True
93,06136004,SOSPEL-COLLETTA,False,4,7.433333,43.866667,540,True
94,06136005,SOSPEL,True,1,7.433667,43.862833,843,True
95,06148001,TOURRETTES SUR LOUP,False,2,7.055833,43.708167,311,True
96,06151001,UTELLE CIMETIERE,False,4,7.246667,43.918333,800,True
97,06151002,UTELLE,False,4,7.266667,43.916667,279,True
98,06152002,VALBONNE-SOPHIA,True,2,7.0285,43.623167,238,True
99,06153001,VALDEBLORE-OBS,False,4,7.166667,44.066667,1000,True
100,06153004,VALDEBLORE,False,2,7.1695,44.069,1058,True
101,06153400,MILLEFONTS-NIVOSE,True,3,7.192,44.118333,2430,True
102,06154002,VALDEROURE,False,2,6.7345,43.792333,1105,True
103,06157002,VENCE,False,4,7.116667,43.716667,321,True
104,06163001,TENDE-OBS,True,2,7.595,44.086667,792,True
105,06163005,TENDE-CASTERINO,False,4,7.5035,44.091833,1554,True
106,06163007,TENDE_SAPC,True,2,7.586,44.043167,636,True
107,06163400,VAL CASTERINO_NEIGE,True,5,7.505833,44.0975,1554,True
0,07005001,ALBA LA ROMAINE,True,2,4.5825,44.539833,223,True
1,07005002,ALBA SA,False,4,4.582833,44.538833,223,True
2,07010001,ANNONAY,True,2,4.6705,45.246167,336,True
3,07010002,ANNONAY LES PILLES,False,4,4.668333,45.243333,384,True
4,07010003,ANNONAY MALLEVAL COLLEGE,False,4,4.668333,45.241667,350,True
5,07011002,ANTRAIGUES,True,2,4.352167,44.719167,428,True
6,07011004,ANTRAIGUES SA,False,2,4.352167,44.712167,600,True
7,07019001,AUBENAS/ECOLES,False,4,4.388333,44.616667,260,True
8,07019003,AUBENAS PONT D'AUBENAS,False,4,4.388333,44.616667,310,True
9,07019005,AUBENAS SA,True,2,4.409833,44.601667,176,True
10,07025001,BARNAS RAD,True,1,4.159833,44.666,480,True
11,07032002,BERZEME RAD,True,1,4.566333,44.628333,650,True
12,07032003,BERZEME SA,False,3,4.5665,44.6285,760,True
13,07033001,BESSAS,True,2,4.298667,44.34,251,True
14,07042001,BOURG ST ANDEOL,False,4,4.6415,44.372333,74,True
15,07064001,CHEYLARD SA,True,2,4.4375,44.914833,418,True
16,07064002,CHEYLARD,False,4,4.4,44.916667,450,True
17,07066001,CHOMERAC SA_RCE,True,2,4.648333,44.6995,216,True
18,07068001,COLOMBIER JEUNE RAD,True,1,4.671167,45.0155,566,True
19,07069001,COLOMBIER VIEUX SA,False,3,4.698,45.063667,408,True
20,07075001,CROS GEORAND,True,2,4.099667,44.780167,1021,True
21,07088001,FAUGERES,False,4,4.136167,44.474667,430,True
22,07096001,GLUIRAS RAD,True,1,4.524,44.839333,760,True
23,07099001,GRAS,True,2,4.5655,44.429,341,True
24,07101001,GROSPIERRES,True,2,4.300833,44.411333,127,True
25,07101002,GROSPIERRES SA,False,2,4.295833,44.4115,107,True
26,07105001,ISSANLAS,True,2,3.981667,44.773167,1215,True
27,07105003,ISSANLAS_SAPC,True,2,3.975333,44.7555,1264,True
28,07110001,JOYEUSE,False,4,4.230833,44.477667,212,True
29,07110002,JOYEUSE ECOLE,False,4,4.238333,44.48,170,True
30,07117001,LABLACHERE DROME,True,4,4.234833,44.461333,265,True
31,07117002,LABLACHERE,True,2,4.208333,44.480833,295,True
32,07128001,LALOUVESC,True,2,4.535,45.117833,1090,True
33,07131001,LANAS SYN,True,0,4.368167,44.537167,265,True
34,07144001,LOUBARESSE,True,4,4.049333,44.599833,1220,True
35,07153001,MAYRES,True,2,4.113,44.667167,579,True
36,07154003,MAZAN  S.A.,False,3,4.128333,44.743333,1185,True
37,07154005,MAZAN ABBAYE RAD,True,1,4.083833,44.733833,1240,True
38,07159001,MIRABEL SA,True,2,4.497333,44.5815,275,True
39,07161001,MONTPEZAT SA,True,2,4.207,44.715667,602,True
40,07161002,MONTPEZAT,True,4,4.229667,44.703333,491,True
41,07168001,ORGNAC AVEN,True,2,4.421667,44.288333,230,True
42,07172001,PEAUGRES,False,4,4.75,45.291667,366,True
43,07172002,PEAUGRES RAD,True,1,4.705833,45.286167,480,True
44,07185001,PREAUX SA,False,2,4.665,45.14,525,True
45,07186001,PRIVAS,True,4,4.596333,44.718833,282,True
46,07186002,PRIVAS,False,4,4.601667,44.736667,300,True
47,07186005,PRIVAS,False,4,4.596667,44.736667,275,True
48,07187001,CROIX MILLET,True,1,4.241333,44.606333,779,True
49,07192001,ROCHEPAULE SA,False,3,4.453333,45.081667,1055,True
50,07202002,SABLIERES OARA,True,2,4.0725,44.533,540,True
51,07204001,ECOLE ST AGREVE,False,4,4.398333,45.008333,1050,True
52,07204002,LICHESSOL,False,4,4.431167,44.982,1050,True
53,07204005,ST-AGREVE,False,4,4.401,45.012167,1072,True
54,07204008,ST-AGREVE RAD,True,1,4.368,44.997833,1014,True
55,07225001,ST-CLAIR S.A.,False,3,4.681667,45.27,420,True
56,07228001,ST-DESIRAT SA,False,3,4.783667,45.260333,275,True
57,07230002,ESCRINET SA,False,2,4.4905,44.715333,737,True
58,07232001,ST-ETIENNE LUGDARES,True,2,3.9485,44.651333,1022,True
59,07235003,SAINTE-EULALIE PRINCES,False,4,4.188333,44.81,1350,True
60,07236002,SAINT-FELICIEN ECOLE,False,4,4.628333,45.085,540,True
61,07237001,ST-FORTUNAT,False,4,4.661667,44.816667,205,True
62,07240001,ST-GEORGES BAIN,True,2,4.8325,44.860333,112,True
63,07261001,ST-LAURENT PAPE,True,2,4.746833,44.817833,112,True
64,07265001,ST-MARCEL ANNONAY,True,2,4.642,45.296,494,True
65,07279001,ST-MONTAN,True,2,4.636333,44.441833,130,True
66,07281001,SAINT-PERAY FRUITCOOP,False,4,4.843333,44.945,120,True
67,07284002,ST-PIERRE-ST-JEAN,False,4,4.1165,44.449333,315,True
68,07286001,ST PIERREVILLE,False,4,4.488333,44.815,600,True
69,07286002,ST-PIERREVILLE,True,2,4.485,44.814333,560,True
70,07286004,ST PVILLE S.A.,False,3,4.488333,44.82,640,True
71,07293001,ST ROMAIN,False,4,4.798333,44.976667,600,True
72,07294001,ST-SAUVEUR SA,False,2,4.26,44.296,149,True
73,07301002,ST-VICTOR,True,2,4.682333,45.110167,557,True
74,07303001,ST-VINCENT DE D,False,4,4.646667,44.818333,150,True
75,07314001,SILHAC FONTBONNE,False,4,4.608333,44.88,600,True
76,07315004,LA SOUCHE,True,2,4.123667,44.6285,924,True
77,07319001,FRAYOL,False,4,4.685,44.551667,71,True
78,07322001,THUEYTS,False,4,4.238333,44.673333,420,True
79,07324001,TOURNON,False,4,4.835,45.065,123,True
80,07330002,VALLON,False,4,4.386667,44.41,94,True
81,07330004,VALLON SA,True,4,4.403667,44.391833,120,True
82,07331001,VALS-LES-BAINS,True,2,4.360667,44.6695,283,True
83,07334003,LES VANS SA,False,3,4.118,44.411667,275,True
84,07334004,LES VANS-SA,True,2,4.150833,44.4155,140,True
85,07338001,VERNOUX,True,2,4.652333,44.8995,561,True
86,07338005,VERNOUX SA,False,2,4.626667,44.893333,510,True
87,07346001,VIVIERS BOURG,False,4,4.688333,44.483333,80,True
88,07347001,VOCANCE,True,2,4.554333,45.201167,529,True
0,08001001,ACY-ROMANCE,False,4,4.339167,49.500833,99,True
1,08025001,ATTIGNY,False,4,4.575,49.475,81,True
2,08026001,AUBIGNY,False,2,4.446667,49.778333,191,True
3,08046001,BANOGNE-RECOUVRANCE,True,2,4.129167,49.571667,130,True
4,08052002,BAYONVILLE,False,2,5.011667,49.38,195,True
5,08089003,BUZANCY_SAPC,True,2,4.9645,49.427333,199,True
6,08090001,CARIGNAN,False,4,5.166667,49.633333,172,True
7,08092001,CAUROY,False,4,4.465167,49.346833,139,True
8,08101002,LA CHAPELLE,False,2,5.041667,49.766667,396,True
9,08105001,MEZIERES,False,4,4.716,49.759667,140,True
10,08105002,CHARLEVILLE,False,4,4.72,49.761667,144,True
11,08105003,MONTCY-ST-PIER,False,4,4.739667,49.773667,145,True
12,08105005,CHARLEVILLE-MEZ,True,0,4.643167,49.782833,145,True
13,08116001,LE CHESNE,True,2,4.766167,49.510333,168,True
14,08145001,DOUZY,True,1,5.039833,49.658,153,True
15,08188002,GESPUNSART,False,4,4.828333,49.821667,204,True
16,08190001,GIVET,False,1,4.842833,50.143833,165,True
17,08207001,HAM-SUR-MEUSE,True,2,4.7795,50.116,109,True
18,08239001,JUNIVILLE,True,2,4.371667,49.397333,90,True
19,08239002,JUNIVILLE,False,2,4.395,49.391667,98,True
20,08244001,LAMETZ_SAPC,True,2,4.689667,49.536667,165,True
21,08248002,LAUNOIS-SUR-VENCE_SAPC,True,2,4.534667,49.671833,218,True
22,08254002,LIART_SAPC,True,2,4.340333,49.7655,240,True
23,08255001,LINAY,True,2,5.216833,49.616833,177,True
24,08296001,MONTCHEUTIN,False,4,4.819333,49.289833,132,True
25,08296002,MONTCHEUTIN_SAPC,True,2,4.809667,49.287333,142,True
26,08302003,MONTHERME,False,2,4.766667,49.916667,461,True
27,08303001,MONTHOIS,False,2,4.711833,49.316833,126,True
28,08311001,MOUZON,False,4,5.075,49.606667,158,True
29,08324001,NEUVIZY - MAN,False,4,4.535,49.628333,212,True
30,08324002,NEUVIZY,False,2,4.533333,49.628333,212,True
31,08353001,RANCENNES,True,1,4.813167,50.118833,162,True
32,08354001,RAUCOURT - MAN,False,4,4.96,49.605,200,True
33,08354002,RAUCOURT,False,2,4.963333,49.605,200,True
34,08355001,REGNIOWEZ SA,False,2,4.428333,49.913333,350,True
35,08362002,RETHEL - MAN,False,4,4.363667,49.5025,71,True
36,08362003,RETHEL,False,2,4.373333,49.516667,115,True
37,08363001,REVIN,False,4,4.626667,49.9325,130,True
38,08366002,ROCQUIGNY,False,2,4.236667,49.716667,250,True
39,08367001,ROCROI - MAN,False,4,4.52,49.921667,386,True
40,08367002,ROCROI,True,1,4.53,49.918667,382,True
41,08381002,ST GERMAINMONT,False,2,4.133333,49.5,80,True
42,08401001,SAULCES-CHAMPENOISES,True,1,4.4925,49.423833,147,True
43,08419001,SIGNY-L'ABBAYE,True,2,4.418833,49.686,180,True
44,08420002,SIGNY-LE-PETIT_SAPC,True,2,4.288167,49.9135,309,True
45,08435001,TAGNON,False,4,4.288333,49.44,96,True
46,08438001,TAIZY,False,4,4.256667,49.52,70,True
47,08439002,TANNAY,False,2,4.81,49.516667,165,True
48,08458001,TOURTERON,False,2,4.62,49.54,158,True
49,08461001,VANDY,False,4,4.705667,49.434167,112,True
50,08490001,VOUZIERS,False,4,4.704,49.404167,96,True
51,08490002,VOUZIERS,False,4,4.698333,49.396667,122,True
0,09002001,AIGUES VIVES,False,4,1.875,42.996667,410,True
1,09022001,ARVIGNA,False,2,1.729167,43.057833,370,True
2,09023002,ASCOU LAVAIL,True,2,1.895167,42.723833,1100,True
3,09023400,Ascou Pailheres,True,4,1.954,42.730333,1500,True
4,09023800,ASCOU-DOUBLE,True,4,1.862,42.721167,1104,True
5,09024001,ASTON,False,4,1.678333,42.775,547,True
6,09024004,ASTON,True,1,1.691,42.724167,1781,True
7,09024005,RULHE,False,4,1.725833,42.638167,2185,True
8,09027001,AUGIREIN,True,2,0.92,42.930167,655,True
9,09029001,AULUS-LES-BAINS,False,4,1.333833,42.793833,733,True
10,09029400,Guzet,True,4,1.300833,42.778833,1384,True
11,09029402,Aulus les Bains,False,4,1.333833,42.793833,733,True
12,09030001,AUZAT VILLE,False,4,1.481667,42.763333,740,True
13,09030002,AUZAT-MARC,False,4,1.448333,42.716667,1020,True
14,09030003,AUZAT,False,4,1.491667,42.713333,1200,True
15,09030010,BASSIES,True,5,1.413333,42.7655,1655,True
16,09030015,LE FOURCAT,True,5,1.489333,42.665,2445,True
17,09032401,Le Saquet,False,4,1.82,42.7,2000,True
18,09032402,Ax Bonascre,False,4,1.7965,42.692333,1715,True
19,09032403,AX SAQUET,True,4,1.791333,42.674167,1997,True
20,09042003,LA BASTIDE DE S,False,4,1.3885,43.024333,420,True
21,09047001,BELESTA,True,2,1.936667,42.903833,490,True
22,09062002,ESTAGNOUS,True,5,1.072667,42.797333,2240,True
23,09067001,BRIE,False,4,1.524333,43.202667,265,True
24,09070400,Beille,True,4,1.690667,42.724,1789,True
25,09071001,CADARCET,False,4,1.501333,43.012667,510,True
26,09076001,CANTE,False,4,1.541667,43.26,230,True
27,09078002,CARCANIERES,False,4,2.122167,42.695333,1360,True
28,09079001,CARLA BAYLE,False,4,1.3745,43.143,375,True
29,09079002,CARLA BAYLE PAT,False,2,1.375,43.143333,387,True
30,09082001,CASTELNAU DURBA,False,4,1.351667,42.985,585,True
31,09094001,CERIZOLS,True,2,1.063,43.126,374,True
32,09099001,COS,True,1,1.5645,42.970167,519,True
33,09121001,FERRIERES-SUR-ARIEGE,False,4,1.62,42.935,405,True
34,09122001,FOIX LABARRE,False,4,1.614667,42.996,365,True
35,09122002,FOIX MONTGAUZY,False,4,1.606667,42.96,425,True
36,09135400,Goulier,True,4,1.513333,42.7395,1468,True
37,09139001,HOSPITALET,False,3,1.796333,42.588667,1425,True
38,09139002,HOSPITALET-BOURG,False,4,1.8,42.585,1430,True
39,09139400,L Hospitalet,False,4,1.800333,42.590167,1420,True
40,09140001,LE CHIOULA,True,4,1.863333,42.755,1600,True
41,09161001,LERAN,False,4,1.91,42.966667,500,True
42,09161002,LERAN,False,4,1.9155,42.986167,390,True
43,09161003,LERAN,True,1,1.919167,42.990333,391,True
44,09181002,LE MAS-D'AZIL FOUNBARASCOU,False,4,1.361667,43.078333,298,True
45,09181003,LE MAS D AZIL,True,2,1.357667,43.0735,293,True
46,09182003,MASSAT GEND,False,4,1.347833,42.891,636,True
47,09185001,MAZERES,False,4,1.673667,43.221333,253,True
48,09185002,MAZERES PATAC,False,2,1.663333,43.226667,230,True
49,09189001,MERENS,False,4,1.831667,42.645,1094,True
50,09193400,Mijanes,True,4,2.017,42.7265,1530,True
51,09194001,MIREPOIX,False,4,1.87,43.085833,310,True
52,09194003,MIREPOIX SENESSE,False,4,1.8605,43.102,301,True
53,09199002,MONTAUT,True,1,1.6435,43.192167,295,True
54,09200001,MONTBEL,False,4,1.96,42.993833,390,True
55,09206001,MONTFERRIER,False,4,1.781167,42.891833,760,True
56,09206002,MONT D'OLMES,False,4,1.744333,42.843667,1500,True
57,09206400,Mont d Olmes,True,4,1.744167,42.843833,1472,True
58,09215001,NALZEN,False,4,1.758667,42.916,630,True
59,09220001,ORLU,False,3,1.9125,42.688833,908,True
60,09220003,EN BEYS,True,5,1.944167,42.6265,1970,True
61,09223001,OUST,False,4,1.213333,42.877,495,True
62,09225004,PAMIERS LYCAGRI,False,4,1.6455,43.127,294,True
63,09225005,PAMIERS VILLE,False,2,1.607,43.118833,283,True
64,09230001,LE PLA,False,4,2.083667,42.715,1040,True
65,09230002,LE PLA,False,4,2.076667,42.711667,1170,True
66,09231400,Etang de L Hers,False,4,1.381167,42.807167,1280,True
67,09239004,QUERIGUT,False,4,2.098333,42.696667,1220,True
68,09239005,QUERIGUT,False,4,2.115167,42.683833,1430,True
69,09250001,LES CASCADES,False,4,1.748,42.963667,530,True
70,09277001,ST-YBARS,False,4,1.4215,43.2515,330,True
71,09283002,SAVIGNAC,False,4,1.818833,42.7285,680,True
72,09285400,PORT D'AULA-NIVOSE,True,3,1.114333,42.77,2140,True
73,09289001,ST GIRONS,True,0,1.106833,43.005333,414,True
74,09290004,EYLIE D'EN HAUT,False,4,0.9345,42.835167,1010,True
75,09290006,ARAING,False,4,0.873667,42.834667,1966,True
76,09290400,SENTEIN EYLIE HAUT,True,4,0.934667,42.835333,1000,True
77,09299003,SOUEIX,False,4,1.207167,42.882667,515,True
78,09301001,SOULAN,True,2,1.234333,42.914667,638,True
79,09306001,TARASCON SUR AR,False,4,1.598333,42.850667,475,True
80,09324001,VARILHES LABORIE,False,4,1.648333,43.055,338,True
81,09328001,VERDUN,True,2,1.69,42.791667,550,True
82,09334004,VICDESSOS,False,4,1.488167,42.771667,750,True
0,10002001,AILLEVILLE_SAPC,True,2,4.685667,48.254167,195,True
1,10021001,AVANT-LES-RAMERUPT,True,2,4.283667,48.451333,118,True
2,10030001,TROYES-BARBEREY,True,0,4.02,48.324667,112,True
3,10033001,BAR-SUR-AUBE,False,4,4.708333,48.231667,193,True
4,10033002,BAR-SUR-AUBE,False,4,4.705,48.238333,168,True
5,10034002,BAR-SUR-SEINE AGGLOMERATION,False,4,4.375,48.111667,158,True
6,10042001,BERULLE,True,2,3.663333,48.179,146,True
7,10057001,BOUY-SUR-ORVIN,True,1,3.504833,48.439833,102,True
8,10060001,BREVIANDES,False,4,4.09,48.263333,115,True
9,10070001,CELLES-SUR-OURCE,True,1,4.411333,48.0675,275,True
10,10075001,CHAMPFLEURY,False,4,4.050833,48.619667,118,True
11,10099002,CHESSY-LES-PRES_SAPC,True,2,3.915,48.0255,119,True
12,10102001,COLOMBE-LA-FOSSE-CIVC,False,3,4.779667,48.261667,252,True
13,10119001,CUNFIN_SAPC,True,2,4.6785,48.0365,315,True
14,10119002,CUNFIN,False,4,4.666667,48.041667,252,True
15,10130001,DOSNON,True,2,4.224667,48.609167,115,True
16,10140001,ERVY-LE-CHATEL,False,4,3.91,48.041667,135,True
17,10141001,ESSOYES-CIVC,False,3,4.493833,48.039167,280,True
18,10166002,GRANDES-CHAPELL,True,2,4.016833,48.468167,111,True
19,10202001,LOGES-MARGUERON,False,2,4.098667,48.082833,150,True
20,10209001,LUSIGNY-SUR-BAR,False,4,4.265,48.256667,127,True
21,10223001,MARCILLY-LE-HAY,False,4,3.636,48.346167,128,True
22,10228001,MATHAUX,False,4,4.473333,48.365,132,True
23,10228002,MATHAUX-ETAPE,True,1,4.472333,48.353167,145,True
24,10238001,MESNIL-ST-PERE,True,2,4.322167,48.244833,142,True
25,10241001,METZ-ROBERT_SAPC,True,2,4.101167,48.0745,140,True
26,10255002,MONTREUIL,False,2,4.275833,48.217333,150,True
27,10261001,MUSSY-SUR-SEINE,True,2,4.495833,47.983833,193,True
28,10282001,PAYNS BOURG,False,4,3.976667,48.381667,96,True
29,10306001,PROVERVILLE,False,4,4.693333,48.23,175,True
30,10313001,RADONVILLIERS,False,4,4.483333,48.35,136,True
31,10317001,LES-RICEYS,False,2,4.372,47.997167,185,True
32,10317002,LES-RICEYS-CIVC,False,3,4.3305,47.981333,274,True
33,10323001,ROMILLY,True,2,3.7495,48.503333,77,True
34,10350001,ST-MARDS,True,1,3.789,48.169833,227,True
35,10360001,ST-POUANGE,False,4,4.049833,48.238833,122,True
36,10372001,SOULAINES,True,2,4.671333,48.399333,138,True
37,10387001,TROYES ECOLE NORMALE,False,4,4.071667,48.295,108,True
38,10401001,VENDEUVRE-SUR-B,True,2,4.463,48.233,180,True
39,10419001,VILLEMOYENNE,True,2,4.233833,48.1785,134,True
40,10429001,VILLETTE-SUR-AU,False,4,4.119667,48.532833,98,True
41,10438001,VITRY-LE-CROISE-CIVC,False,3,4.554167,48.144333,237,True
